{
"type": "FeatureCollection",
"name": "Water_Main_Breaks_(2021)",
"crs": { "type": "name", "properties": { "name": "urn:ogc:def:crs:OGC:1.3:CRS84" } },
"features": [
{ "type": "Feature", "properties": { "FID": 1, "Location": "S. Salina St. & Orlando Ave.", "Date": "2021-01-02T00:00:00Z", "Work_Order": "Main Break/Leak" }, "geometry": { "type": "Point", "coordinates": [ -76.142791267594504, 43.001732645728403 ] } },
{ "type": "Feature", "properties": { "FID": 2, "Location": "613 Second North St.", "Date": "2021-01-05T00:00:00Z", "Work_Order": "Main Break/Leak" }, "geometry": { "type": "Point", "coordinates": [ -76.1595440731233, 43.075112847998099 ] } },
{ "type": "Feature", "properties": { "FID": 3, "Location": "1100 E. Washington St.", "Date": "2021-01-06T00:00:00Z", "Work_Order": "Main Break/Leak" }, "geometry": { "type": "Point", "coordinates": [ -76.134274148708698, 43.049293786980201 ] } },
{ "type": "Feature", "properties": { "FID": 4, "Location": "Water St. & Pine St.", "Date": "2021-01-07T00:00:00Z", "Work_Order": "Main Break/Leak" }, "geometry": { "type": "Point", "coordinates": [ -76.129734332583098, 43.050218672576499 ] } },
{ "type": "Feature", "properties": { "FID": 5, "Location": "401 Pulaski St.", "Date": "2021-01-07T00:00:00Z", "Work_Order": "Main Break/Leak" }, "geometry": { "type": "Point", "coordinates": [ -76.174675788873699, 43.0607185181481 ] } },
{ "type": "Feature", "properties": { "FID": 6, "Location": "Herbert St. & Gilbert Ave.", "Date": "2021-01-08T00:00:00Z", "Work_Order": "Main Break/Leak" }, "geometry": { "type": "Point", "coordinates": [ -76.148530978979394, 43.068221752052203 ] } },
{ "type": "Feature", "properties": { "FID": 7, "Location": "310 W. Kirkpatrick St.", "Date": "2021-01-08T00:00:00Z", "Work_Order": "Main Break/Leak" }, "geometry": { "type": "Point", "coordinates": [ -76.162320388579701, 43.060407655726202 ] } },
{ "type": "Feature", "properties": { "FID": 8, "Location": "417 Merriman Ave.", "Date": "2021-01-08T00:00:00Z", "Work_Order": "Main Break/Leak" }, "geometry": { "type": "Point", "coordinates": [ -76.170279082303594, 43.040040769387403 ] } },
{ "type": "Feature", "properties": { "FID": 9, "Location": "613 Second North St.", "Date": "2021-01-09T00:00:00Z", "Work_Order": "Main Break/Leak" }, "geometry": { "type": "Point", "coordinates": [ -76.1595440731233, 43.075112847998099 ] } },
{ "type": "Feature", "properties": { "FID": 10, "Location": "1815 E. Fayette St.", "Date": "2021-01-10T00:00:00Z", "Work_Order": "Main Break/Leak" }, "geometry": { "type": "Point", "coordinates": [ -76.119534108162398, 43.048364723666403 ] } },
{ "type": "Feature", "properties": { "FID": 11, "Location": "119 Ashworth Pl.", "Date": "2021-01-10T00:00:00Z", "Work_Order": "Main Break/Leak" }, "geometry": { "type": "Point", "coordinates": [ -76.133890832201701, 43.047817941775897 ] } },
{ "type": "Feature", "properties": { "FID": 12, "Location": "111 Pierce St.", "Date": "2021-01-11T00:00:00Z", "Work_Order": "Main Break/Leak" }, "geometry": { "type": "Point", "coordinates": [ -76.148768263751194, 43.011767518812498 ] } },
{ "type": "Feature", "properties": { "FID": 13, "Location": "2408 Euclid Ave.", "Date": "2021-01-12T00:00:00Z", "Work_Order": "Main Break/Leak" }, "geometry": { "type": "Point", "coordinates": [ -76.0947488880321, 43.0388038288663 ] } },
{ "type": "Feature", "properties": { "FID": 14, "Location": "Myrtle St. & Hamilton St.", "Date": "2021-01-13T00:00:00Z", "Work_Order": "Main Break/Leak" }, "geometry": { "type": "Point", "coordinates": [ -76.193961814176703, 43.047724845945901 ] } },
{ "type": "Feature", "properties": { "FID": 15, "Location": "704 Meadowbrook Dr.", "Date": "2021-01-17T00:00:00Z", "Work_Order": "Main Break/Leak" }, "geometry": { "type": "Point", "coordinates": [ -76.114662143612506, 43.031352780084703 ] } },
{ "type": "Feature", "properties": { "FID": 16, "Location": "Comstock Ave. & Daybreak Lane", "Date": "2021-01-20T00:00:00Z", "Work_Order": "Main Break/Leak" }, "geometry": { "type": "Point", "coordinates": [ -76.128453160335198, 43.022147147205501 ] } },
{ "type": "Feature", "properties": { "FID": 17, "Location": "Comstock Ave. & Madison St.", "Date": "2021-01-23T00:00:00Z", "Work_Order": "Main Break/Leak" }, "geometry": { "type": "Point", "coordinates": [ -76.130631401074197, 43.0453261686771 ] } },
{ "type": "Feature", "properties": { "FID": 18, "Location": "Erie Blvd E. & Smith St.", "Date": "2021-01-25T00:00:00Z", "Work_Order": "Main Break/Leak" }, "geometry": { "type": "Point", "coordinates": [ -76.090876787677402, 43.054946498514603 ] } },
{ "type": "Feature", "properties": { "FID": 19, "Location": "Smith St. & Erie Blvd E.", "Date": "2021-01-25T00:00:00Z", "Work_Order": "Main Break/Leak" }, "geometry": { "type": "Point", "coordinates": [ -76.090876787677402, 43.054946498514603 ] } },
{ "type": "Feature", "properties": { "FID": 20, "Location": "2876 Erie Blvd E.", "Date": "2021-01-26T00:00:00Z", "Work_Order": "Main Break/Leak" }, "geometry": { "type": "Point", "coordinates": [ -76.091623601153501, 43.054806613007301 ] } },
{ "type": "Feature", "properties": { "FID": 21, "Location": "707 Wolf St.", "Date": "2021-01-27T00:00:00Z", "Work_Order": "Main Break/Leak" }, "geometry": { "type": "Point", "coordinates": [ -76.160911683770294, 43.075855683500798 ] } },
{ "type": "Feature", "properties": { "FID": 22, "Location": "204 Sunset Ave.", "Date": "2021-01-27T00:00:00Z", "Work_Order": "Main Break/Leak" }, "geometry": { "type": "Point", "coordinates": [ -76.159302870572503, 43.064975399615697 ] } },
{ "type": "Feature", "properties": { "FID": 23, "Location": "727 S. State St.", "Date": "2021-01-28T00:00:00Z", "Work_Order": "Main Break/Leak" }, "geometry": { "type": "Point", "coordinates": [ -76.147401101852694, 43.045163922871502 ] } },
{ "type": "Feature", "properties": { "FID": 24, "Location": "125-127 Robineau Rd.", "Date": "2021-01-29T00:00:00Z", "Work_Order": "Main Break/Leak" }, "geometry": { "type": "Point", "coordinates": [ -76.172527198872402, 43.0271935515159 ] } },
{ "type": "Feature", "properties": { "FID": 25, "Location": "2775 Erie Blvd E.", "Date": "2021-01-29T00:00:00Z", "Work_Order": "Main Break/Leak" }, "geometry": { "type": "Point", "coordinates": [ -76.094886021598995, 43.054635738739599 ] } },
{ "type": "Feature", "properties": { "FID": 26, "Location": "118 Dearborn Pl.", "Date": "2021-01-30T00:00:00Z", "Work_Order": "Main Break/Leak" }, "geometry": { "type": "Point", "coordinates": [ -76.1574850219138, 43.030553649386398 ] } },
{ "type": "Feature", "properties": { "FID": 27, "Location": "James St. & Catherine St.", "Date": "2021-01-30T00:00:00Z", "Work_Order": "Main Break/Leak" }, "geometry": { "type": "Point", "coordinates": [ -76.143127786145598, 43.055008370449897 ] } },
{ "type": "Feature", "properties": { "FID": 28, "Location": "465 Brattle Rd.", "Date": "2021-02-01T00:00:00Z", "Work_Order": "Main Break/Leak" }, "geometry": { "type": "Point", "coordinates": [ -76.128741637434302, 43.070412659168802 ] } },
{ "type": "Feature", "properties": { "FID": 29, "Location": "419 Hiawatha Blvd. E.", "Date": "2021-02-01T00:00:00Z", "Work_Order": "Main Break/Leak" }, "geometry": { "type": "Point", "coordinates": [ -76.164100734255598, 43.074192018827603 ] } },
{ "type": "Feature", "properties": { "FID": 30, "Location": "Lynch Ave. & Russell Pl.", "Date": "2021-02-03T00:00:00Z", "Work_Order": "Main Break/Leak" }, "geometry": { "type": "Point", "coordinates": [ -76.167776605915606, 43.0146116591268 ] } },
{ "type": "Feature", "properties": { "FID": 31, "Location": "2400 James St.", "Date": "2021-02-04T00:00:00Z", "Work_Order": "Main Break/Leak" }, "geometry": { "type": "Point", "coordinates": [ -76.112725743604898, 43.068474315848 ] } },
{ "type": "Feature", "properties": { "FID": 32, "Location": "640 Myrtle St.", "Date": "2021-02-04T00:00:00Z", "Work_Order": "Main Break/Leak" }, "geometry": { "type": "Point", "coordinates": [ -76.195441450382404, 43.050103249258903 ] } },
{ "type": "Feature", "properties": { "FID": 33, "Location": "Hiawatha Blvd. W. & Van Rensselaer St.", "Date": "2021-02-05T00:00:00Z", "Work_Order": "Main Break/Leak" }, "geometry": { "type": "Point", "coordinates": [ -76.174431168575197, 43.063804693603899 ] } },
{ "type": "Feature", "properties": { "FID": 34, "Location": "Park Ave. & Sackett St.", "Date": "2021-02-09T00:00:00Z", "Work_Order": "Main Break/Leak" }, "geometry": { "type": "Point", "coordinates": [ -76.176258469396203, 43.052203042706303 ] } },
{ "type": "Feature", "properties": { "FID": 35, "Location": "Lancaster Ave. & E. Colvin St.", "Date": "2021-02-10T00:00:00Z", "Work_Order": "Main Break/Leak" }, "geometry": { "type": "Point", "coordinates": [ -76.121579343152504, 43.021903223023699 ] } },
{ "type": "Feature", "properties": { "FID": 36, "Location": "156 Wadsworth St.", "Date": "2021-02-10T00:00:00Z", "Work_Order": "Main Break/Leak" }, "geometry": { "type": "Point", "coordinates": [ -76.138802498087401, 43.070096126528497 ] } },
{ "type": "Feature", "properties": { "FID": 37, "Location": "1117 W. Fayette St.", "Date": "2021-02-12T00:00:00Z", "Work_Order": "Main Break/Leak" }, "geometry": { "type": "Point", "coordinates": [ -76.171673676307904, 43.0459440352979 ] } },
{ "type": "Feature", "properties": { "FID": 38, "Location": "409 Scott Ave.", "Date": "2021-02-15T00:00:00Z", "Work_Order": "Main Break/Leak" }, "geometry": { "type": "Point", "coordinates": [ -76.106827802979694, 43.035835433247897 ] } },
{ "type": "Feature", "properties": { "FID": 39, "Location": "207 Weymouth Rd.", "Date": "2021-02-16T00:00:00Z", "Work_Order": "Main Break/Leak" }, "geometry": { "type": "Point", "coordinates": [ -76.140118361817002, 42.996255104312198 ] } },
{ "type": "Feature", "properties": { "FID": 40, "Location": "1120 W. Fayette St.", "Date": "2021-02-16T00:00:00Z", "Work_Order": "Main Break/Leak" }, "geometry": { "type": "Point", "coordinates": [ -76.171801506080598, 43.046138183986301 ] } },
{ "type": "Feature", "properties": { "FID": 41, "Location": "515 Boyden St.", "Date": "2021-02-18T00:00:00Z", "Work_Order": "Main Break/Leak" }, "geometry": { "type": "Point", "coordinates": [ -76.119692968906193, 43.061391193576704 ] } },
{ "type": "Feature", "properties": { "FID": 42, "Location": "646 Burnet Ave.", "Date": "2021-02-18T00:00:00Z", "Work_Order": "Main Break/Leak" }, "geometry": { "type": "Point", "coordinates": [ -76.134590189490893, 43.052071016670503 ] } },
{ "type": "Feature", "properties": { "FID": 43, "Location": "132 Fairview Ave.", "Date": "2021-02-19T00:00:00Z", "Work_Order": "Main Break/Leak" }, "geometry": { "type": "Point", "coordinates": [ -76.126707901826407, 43.053783968424902 ] } },
{ "type": "Feature", "properties": { "FID": 44, "Location": "132 Fairview Av.", "Date": "2021-02-19T00:00:00Z", "Work_Order": "Main Break/Leak" }, "geometry": { "type": "Point", "coordinates": [ -76.126707901826407, 43.053783968424902 ] } },
{ "type": "Feature", "properties": { "FID": 45, "Location": "Leavenworth Ave & I-690", "Date": "2021-02-20T00:00:00Z", "Work_Order": "Main Break/Leak" }, "geometry": { "type": "Point", "coordinates": [ -76.163014318630502, 43.0553467602561 ] } },
{ "type": "Feature", "properties": { "FID": 46, "Location": "309-311 Curtis St.", "Date": "2021-02-21T00:00:00Z", "Work_Order": "Main Break/Leak" }, "geometry": { "type": "Point", "coordinates": [ -76.147239284395098, 43.068676974169598 ] } },
{ "type": "Feature", "properties": { "FID": 47, "Location": "310 Lodi St.", "Date": "2021-02-22T00:00:00Z", "Work_Order": "Main Break/Leak" }, "geometry": { "type": "Point", "coordinates": [ -76.1331924615736, 43.052583272017699 ] } },
{ "type": "Feature", "properties": { "FID": 48, "Location": "S. Midler Ave. & Sunnycrest Rd.", "Date": "2021-02-25T00:00:00Z", "Work_Order": "Main Break/Leak" }, "geometry": { "type": "Point", "coordinates": [ -76.104493048068605, 43.061909093525202 ] } },
{ "type": "Feature", "properties": { "FID": 49, "Location": "1012 Kirkpatrick St.", "Date": "2021-02-25T00:00:00Z", "Work_Order": "Main Break/Leak" }, "geometry": { "type": "Point", "coordinates": [ -76.149642355538006, 43.0741268258651 ] } },
{ "type": "Feature", "properties": { "FID": 50, "Location": "227 Dorchester Av.", "Date": "2021-02-25T00:00:00Z", "Work_Order": "Main Break/Leak" }, "geometry": { "type": "Point", "coordinates": [ -76.125353134584302, 43.069860689652799 ] } },
{ "type": "Feature", "properties": { "FID": 51, "Location": "123 Woodlawn Terr.", "Date": "2021-02-25T00:00:00Z", "Work_Order": "Main Break/Leak" }, "geometry": { "type": "Point", "coordinates": [ -76.131197010088499, 43.070644366657902 ] } },
{ "type": "Feature", "properties": { "FID": 52, "Location": "S. Franklin St. & W. Fayette St.", "Date": "2021-02-26T00:00:00Z", "Work_Order": "Main Break/Leak" }, "geometry": { "type": "Point", "coordinates": [ -76.155520297865493, 43.048723233145303 ] } },
{ "type": "Feature", "properties": { "FID": 53, "Location": "318 Curtis St.", "Date": "2021-02-26T00:00:00Z", "Work_Order": "Main Break/Leak" }, "geometry": { "type": "Point", "coordinates": [ -76.147485483375306, 43.067980143030603 ] } },
{ "type": "Feature", "properties": { "FID": 54, "Location": "610 Park St.", "Date": "2021-02-28T00:00:00Z", "Work_Order": "Main Break/Leak" }, "geometry": { "type": "Point", "coordinates": [ -76.141744111837795, 43.063075997615698 ] } },
{ "type": "Feature", "properties": { "FID": 55, "Location": "209 Cayuga St.", "Date": "2021-02-28T00:00:00Z", "Work_Order": "Main Break/Leak" }, "geometry": { "type": "Point", "coordinates": [ -76.188775200215204, 43.050813600186302 ] } },
{ "type": "Feature", "properties": { "FID": 56, "Location": "110 Huntington Rd.", "Date": "2021-02-28T00:00:00Z", "Work_Order": "Main Break/Leak" }, "geometry": { "type": "Point", "coordinates": [ -76.195519909569001, 43.028838521542802 ] } },
{ "type": "Feature", "properties": { "FID": 57, "Location": "318 Curtis St.", "Date": "2021-02-28T00:00:00Z", "Work_Order": "Main Break/Leak" }, "geometry": { "type": "Point", "coordinates": [ -76.147485483375306, 43.067980143030603 ] } },
{ "type": "Feature", "properties": { "FID": 58, "Location": "Elmhurst Ave. & Hunt Ave.", "Date": "2021-03-02T00:00:00Z", "Work_Order": "Main Break/Leak" }, "geometry": { "type": "Point", "coordinates": [ -76.155724263426094, 43.020944221090303 ] } },
{ "type": "Feature", "properties": { "FID": 59, "Location": "401 Fobes Ave.", "Date": "2021-03-08T00:00:00Z", "Work_Order": "Main Break/Leak" }, "geometry": { "type": "Point", "coordinates": [ -76.111846353935306, 43.074713091129503 ] } },
{ "type": "Feature", "properties": { "FID": 60, "Location": "204 Seeley Rd.", "Date": "2021-03-08T00:00:00Z", "Work_Order": "Main Break/Leak" }, "geometry": { "type": "Point", "coordinates": [ -76.104098609586998, 43.052228263974101 ] } },
{ "type": "Feature", "properties": { "FID": 61, "Location": "2700 Erie Blvd E.", "Date": "2021-03-09T00:00:00Z", "Work_Order": "Main Break/Leak" }, "geometry": { "type": "Point", "coordinates": [ -76.096786543795105, 43.054270958682103 ] } },
{ "type": "Feature", "properties": { "FID": 62, "Location": "225 W. Fayette St.", "Date": "2021-03-09T00:00:00Z", "Work_Order": "Main Break/Leak" }, "geometry": { "type": "Point", "coordinates": [ -76.154045316827506, 43.048625916039498 ] } },
{ "type": "Feature", "properties": { "FID": 63, "Location": "529 Tracy St.", "Date": "2021-03-10T00:00:00Z", "Work_Order": "Main Break/Leak" }, "geometry": { "type": "Point", "coordinates": [ -76.166759178235296, 43.049064987777001 ] } },
{ "type": "Feature", "properties": { "FID": 64, "Location": "225 W. Fayette St.", "Date": "2021-03-11T00:00:00Z", "Work_Order": "Main Break/Leak" }, "geometry": { "type": "Point", "coordinates": [ -76.154045316827506, 43.048625916039498 ] } },
{ "type": "Feature", "properties": { "FID": 65, "Location": "405 Ulster St.", "Date": "2021-03-14T00:00:00Z", "Work_Order": "Main Break/Leak" }, "geometry": { "type": "Point", "coordinates": [ -76.184681798655802, 43.048351042753801 ] } },
{ "type": "Feature", "properties": { "FID": 66, "Location": "N. Collingwood Ave. & Tyson Pl.", "Date": "2021-03-17T00:00:00Z", "Work_Order": "Main Break/Leak" }, "geometry": { "type": "Point", "coordinates": [ -76.107574351524093, 43.070732922569398 ] } },
{ "type": "Feature", "properties": { "FID": 67, "Location": "3412 James St.", "Date": "2021-03-17T00:00:00Z", "Work_Order": "Main Break/Leak" }, "geometry": { "type": "Point", "coordinates": [ -76.099920706960305, 43.069069743937298 ] } },
{ "type": "Feature", "properties": { "FID": 68, "Location": "150 Market St.", "Date": "2021-03-18T00:00:00Z", "Work_Order": "Main Break/Leak" }, "geometry": { "type": "Point", "coordinates": [ -76.148982798928103, 43.049999791485199 ] } },
{ "type": "Feature", "properties": { "FID": 69, "Location": "128 E. Genesee St.", "Date": "2021-03-18T00:00:00Z", "Work_Order": "Main Break/Leak" }, "geometry": { "type": "Point", "coordinates": [ -76.151568170289394, 43.050344380703002 ] } },
{ "type": "Feature", "properties": { "FID": 70, "Location": "210 Scottholm Terr.", "Date": "2021-03-19T00:00:00Z", "Work_Order": "Main Break/Leak" }, "geometry": { "type": "Point", "coordinates": [ -76.111937325815603, 43.041326117261796 ] } },
{ "type": "Feature", "properties": { "FID": 71, "Location": "136 Market St.", "Date": "2021-03-23T00:00:00Z", "Work_Order": "Main Break/Leak" }, "geometry": { "type": "Point", "coordinates": [ -76.148981761423698, 43.050132906668999 ] } },
{ "type": "Feature", "properties": { "FID": 72, "Location": "Westmoreland Ave. & Meadowbrook Ave.", "Date": "2021-03-25T00:00:00Z", "Work_Order": "Main Break/Leak" }, "geometry": { "type": "Point", "coordinates": [ -76.113597856985393, 43.031782856979099 ] } },
{ "type": "Feature", "properties": { "FID": 73, "Location": "Elmhurst Ave. & Bishop Ave.", "Date": "2021-03-26T00:00:00Z", "Work_Order": "Main Break/Leak" }, "geometry": { "type": "Point", "coordinates": [ -76.158110153040795, 43.0208836904254 ] } },
{ "type": "Feature", "properties": { "FID": 74, "Location": "251 Madison St.", "Date": "2021-03-28T00:00:00Z", "Work_Order": "Main Break/Leak" }, "geometry": { "type": "Point", "coordinates": [ -76.148160174826799, 43.045550019896702 ] } },
{ "type": "Feature", "properties": { "FID": 75, "Location": "Hiawatha Blvd. & Forth North St.", "Date": "2021-04-05T00:00:00Z", "Work_Order": "Main Break/Leak" }, "geometry": { "type": "Point", "coordinates": [ -76.160618475232397, 43.078764442481699 ] } },
{ "type": "Feature", "properties": { "FID": 76, "Location": "1719 Burnet Ave.", "Date": "2021-04-06T00:00:00Z", "Work_Order": "Main Break/Leak" }, "geometry": { "type": "Point", "coordinates": [ -76.112822731495896, 43.0568238882923 ] } },
{ "type": "Feature", "properties": { "FID": 77, "Location": "315 N. Salina St.", "Date": "2021-04-08T00:00:00Z", "Work_Order": "Main Break/Leak" }, "geometry": { "type": "Point", "coordinates": [ -76.152211739776007, 43.055059783312302 ] } },
{ "type": "Feature", "properties": { "FID": 78, "Location": "W. Matson Ave. & S. Salina St.", "Date": "2021-04-10T00:00:00Z", "Work_Order": "Main Break/Leak" }, "geometry": { "type": "Point", "coordinates": [ -76.1417334886129, 43.013367931707698 ] } },
{ "type": "Feature", "properties": { "FID": 79, "Location": "S. Crouse Ave. & E. Fayette St.", "Date": "2021-04-12T00:00:00Z", "Work_Order": "Main Break/Leak" }, "geometry": { "type": "Point", "coordinates": [ -76.136523695224298, 43.048497988731398 ] } },
{ "type": "Feature", "properties": { "FID": 80, "Location": "146 Bear St.", "Date": "2021-04-17T00:00:00Z", "Work_Order": "Main Break/Leak" }, "geometry": { "type": "Point", "coordinates": [ -76.163147324574098, 43.067037168141397 ] } },
{ "type": "Feature", "properties": { "FID": 81, "Location": "787 Erie Blvd W.", "Date": "2021-04-19T00:00:00Z", "Work_Order": "Main Break/Leak" }, "geometry": { "type": "Point", "coordinates": [ -76.170263992084699, 43.048035831681901 ] } },
{ "type": "Feature", "properties": { "FID": 82, "Location": "528 Hiawatha Blvd E.", "Date": "2021-04-19T00:00:00Z", "Work_Order": "Main Break/Leak" }, "geometry": { "type": "Point", "coordinates": [ -76.162916932140504, 43.075444199687198 ] } },
{ "type": "Feature", "properties": { "FID": 83, "Location": "130 Vann St.", "Date": "2021-04-19T00:00:00Z", "Work_Order": "Main Break/Leak" }, "geometry": { "type": "Point", "coordinates": [ -76.121276334267293, 43.0562969030765 ] } },
{ "type": "Feature", "properties": { "FID": 84, "Location": "707 Wolf St.", "Date": "2021-04-20T00:00:00Z", "Work_Order": "Main Break/Leak" }, "geometry": { "type": "Point", "coordinates": [ -76.160911683770294, 43.075855683500798 ] } },
{ "type": "Feature", "properties": { "FID": 85, "Location": "910 Erie Blvd. E.", "Date": "2021-04-21T00:00:00Z", "Work_Order": "Main Break/Leak" }, "geometry": { "type": "Point", "coordinates": [ -76.138877159133301, 43.050664736177403 ] } },
{ "type": "Feature", "properties": { "FID": 86, "Location": "555 S. State St.", "Date": "2021-04-21T00:00:00Z", "Work_Order": "Main Break/Leak" }, "geometry": { "type": "Point", "coordinates": [ -76.147378587845097, 43.046699663668697 ] } },
{ "type": "Feature", "properties": { "FID": 87, "Location": "617 Hiawatha Blvd. E.", "Date": "2021-04-23T00:00:00Z", "Work_Order": "Main Break/Leak" }, "geometry": { "type": "Point", "coordinates": [ -76.162346754607398, 43.076578767417999 ] } },
{ "type": "Feature", "properties": { "FID": 88, "Location": "615 Erie Blvd. W.", "Date": "2021-04-26T00:00:00Z", "Work_Order": "Main Break/Leak" }, "geometry": { "type": "Point", "coordinates": [ -76.163654325759794, 43.0492240484744 ] } },
{ "type": "Feature", "properties": { "FID": 89, "Location": "617 Hiawatha Blvd. E.", "Date": "2021-04-27T00:00:00Z", "Work_Order": "Main Break/Leak" }, "geometry": { "type": "Point", "coordinates": [ -76.162346754607398, 43.076578767417999 ] } },
{ "type": "Feature", "properties": { "FID": 90, "Location": "503 Bellvue Ave.", "Date": "2021-04-28T00:00:00Z", "Work_Order": "Main Break/Leak" }, "geometry": { "type": "Point", "coordinates": [ -76.161256616593704, 43.033297923796702 ] } },
{ "type": "Feature", "properties": { "FID": 91, "Location": "Canal St. & Walnut Ave.", "Date": "2021-04-28T00:00:00Z", "Work_Order": "Main Break/Leak" }, "geometry": { "type": "Point", "coordinates": [ -76.131998903832894, 43.0510923174526 ] } },
{ "type": "Feature", "properties": { "FID": 92, "Location": "127 South Ave.", "Date": "2021-04-29T00:00:00Z", "Work_Order": "Main Break/Leak" }, "geometry": { "type": "Point", "coordinates": [ -76.158939223083095, 43.038757724727503 ] } },
{ "type": "Feature", "properties": { "FID": 93, "Location": "930 Canal St.", "Date": "2021-04-30T00:00:00Z", "Work_Order": "Main Break/Leak" }, "geometry": { "type": "Point", "coordinates": [ -76.126794397353706, 43.051007998638703 ] } },
{ "type": "Feature", "properties": { "FID": 94, "Location": "Slocum Ave. & Kellogg St.", "Date": "2021-05-01T00:00:00Z", "Work_Order": "Main Break/Leak" }, "geometry": { "type": "Point", "coordinates": [ -76.161308927871801, 43.040808390672801 ] } },
{ "type": "Feature", "properties": { "FID": 95, "Location": "105 Lombard Av.", "Date": "2021-05-01T00:00:00Z", "Work_Order": "Main Break/Leak" }, "geometry": { "type": "Point", "coordinates": [ -76.125428879403202, 43.049235687404902 ] } },
{ "type": "Feature", "properties": { "FID": 96, "Location": "Wayne St. & Lodi St.", "Date": "2021-05-04T00:00:00Z", "Work_Order": "Main Break/Leak" }, "geometry": { "type": "Point", "coordinates": [ -76.139306283833506, 43.055745264322198 ] } },
{ "type": "Feature", "properties": { "FID": 97, "Location": "241 Scottholm Terrace", "Date": "2021-05-06T00:00:00Z", "Work_Order": "Main Break/Leak" }, "geometry": { "type": "Point", "coordinates": [ -76.110823564390202, 43.039123431007702 ] } },
{ "type": "Feature", "properties": { "FID": 98, "Location": "E. Washington St. & Walnut Ave.", "Date": "2021-05-16T00:00:00Z", "Work_Order": "Main Break/Leak" }, "geometry": { "type": "Point", "coordinates": [ -76.132054796962194, 43.049349225740201 ] } },
{ "type": "Feature", "properties": { "FID": 99, "Location": "E. Washington St. & Walnut Ave.", "Date": "2021-05-16T00:00:00Z", "Work_Order": "Main Break/Leak" }, "geometry": { "type": "Point", "coordinates": [ -76.132054796962194, 43.049349225740201 ] } },
{ "type": "Feature", "properties": { "FID": 100, "Location": "123-125 Palmer Ave.", "Date": "2021-05-17T00:00:00Z", "Work_Order": "Main Break/Leak" }, "geometry": { "type": "Point", "coordinates": [ -76.162446368212201, 43.035144595088198 ] } },
{ "type": "Feature", "properties": { "FID": 101, "Location": "1930 Glenwood Ave.", "Date": "2021-05-18T00:00:00Z", "Work_Order": "Main Break/Leak" }, "geometry": { "type": "Point", "coordinates": [ -76.190909247130904, 43.028406613637401 ] } },
{ "type": "Feature", "properties": { "FID": 102, "Location": "617 Hixon Ave.", "Date": "2021-05-21T00:00:00Z", "Work_Order": "Main Break/Leak" }, "geometry": { "type": "Point", "coordinates": [ -76.119843432403101, 43.061055495240304 ] } },
{ "type": "Feature", "properties": { "FID": 103, "Location": "155 Ridgewood Dr.", "Date": "2021-05-26T00:00:00Z", "Work_Order": "Main Break/Leak" }, "geometry": { "type": "Point", "coordinates": [ -76.094050656060702, 43.067610935764499 ] } },
{ "type": "Feature", "properties": { "FID": 104, "Location": "Ridgewood Dr. & Northcliffe Rd.", "Date": "2021-05-26T00:00:00Z", "Work_Order": "Main Break/Leak" }, "geometry": { "type": "Point", "coordinates": [ -76.094321616805203, 43.067088520440002 ] } },
{ "type": "Feature", "properties": { "FID": 105, "Location": "1153 W. Fayette St.", "Date": "2021-05-27T00:00:00Z", "Work_Order": "Main Break/Leak" }, "geometry": { "type": "Point", "coordinates": [ -76.173328037100703, 43.046256557557101 ] } },
{ "type": "Feature", "properties": { "FID": 106, "Location": "1938 E. Fayette St.", "Date": "2021-05-28T00:00:00Z", "Work_Order": "Main Break/Leak" }, "geometry": { "type": "Point", "coordinates": [ -76.116208061896799, 43.048160361854698 ] } },
{ "type": "Feature", "properties": { "FID": 107, "Location": "223 DeForest Rd.", "Date": "2021-06-15T00:00:00Z", "Work_Order": "Main Break/Leak" }, "geometry": { "type": "Point", "coordinates": [ -76.090073147356904, 43.0439648075333 ] } },
{ "type": "Feature", "properties": { "FID": 108, "Location": "Grant Blvd. & LeMoyne Ave.", "Date": "2021-06-16T00:00:00Z", "Work_Order": "Main Break/Leak" }, "geometry": { "type": "Point", "coordinates": [ -76.158404144179599, 43.0762969314627 ] } },
{ "type": "Feature", "properties": { "FID": 109, "Location": "Montana St. & Cumberland Ave.", "Date": "2021-06-17T00:00:00Z", "Work_Order": "Main Break/Leak" }, "geometry": { "type": "Point", "coordinates": [ -76.112638045164701, 43.034893888102197 ] } },
{ "type": "Feature", "properties": { "FID": 110, "Location": "465 Midland Ave.", "Date": "2021-06-22T00:00:00Z", "Work_Order": "Main Break/Leak" }, "geometry": { "type": "Point", "coordinates": [ -76.155624368148594, 43.034752963530302 ] } },
{ "type": "Feature", "properties": { "FID": 111, "Location": "615 Kirkpatrick St.", "Date": "2021-06-26T00:00:00Z", "Work_Order": "Main Break/Leak" }, "geometry": { "type": "Point", "coordinates": [ -76.153990974903707, 43.068564138663803 ] } },
{ "type": "Feature", "properties": { "FID": 112, "Location": "351 Kensington Rd.", "Date": "2021-06-29T00:00:00Z", "Work_Order": "Main Break/Leak" }, "geometry": { "type": "Point", "coordinates": [ -76.120346233353004, 43.031983577197401 ] } },
{ "type": "Feature", "properties": { "FID": 113, "Location": "708 Stinard Ave.", "Date": "2021-06-30T00:00:00Z", "Work_Order": "Main Break/Leak" }, "geometry": { "type": "Point", "coordinates": [ -76.173738041247901, 43.025033803496797 ] } },
{ "type": "Feature", "properties": { "FID": 114, "Location": "809 Walnut Ave.", "Date": "2021-07-01T00:00:00Z", "Work_Order": "Main Break/Leak" }, "geometry": { "type": "Point", "coordinates": [ -76.132093499356102, 43.042559045396096 ] } },
{ "type": "Feature", "properties": { "FID": 115, "Location": "Hunt Av. & Elmhurst Ave.", "Date": "2021-07-03T00:00:00Z", "Work_Order": "Main Break/Leak" }, "geometry": { "type": "Point", "coordinates": [ -76.155724263426094, 43.020944221090303 ] } },
{ "type": "Feature", "properties": { "FID": 116, "Location": "300 Park Ave.", "Date": "2021-07-04T00:00:00Z", "Work_Order": "Main Break/Leak" }, "geometry": { "type": "Point", "coordinates": [ -76.161964445934103, 43.052136739435902 ] } },
{ "type": "Feature", "properties": { "FID": 117, "Location": "N. Townsend St. & Union Av.", "Date": "2021-07-07T00:00:00Z", "Work_Order": "Main Break/Leak" }, "geometry": { "type": "Point", "coordinates": [ -76.148075957419294, 43.056207892127098 ] } },
{ "type": "Feature", "properties": { "FID": 118, "Location": "431 S. Beech St.", "Date": "2021-07-10T00:00:00Z", "Work_Order": "Main Break/Leak" }, "geometry": { "type": "Point", "coordinates": [ -76.127153318568801, 43.046166981473199 ] } },
{ "type": "Feature", "properties": { "FID": 119, "Location": "Tennyson Ave. & S. Lowell Ave.", "Date": "2021-07-14T00:00:00Z", "Work_Order": "Main Break/Leak" }, "geometry": { "type": "Point", "coordinates": [ -76.181159199033999, 43.047337559509302 ] } },
{ "type": "Feature", "properties": { "FID": 120, "Location": "237-239 Tennyson Ave.", "Date": "2021-07-14T00:00:00Z", "Work_Order": "Main Break/Leak" }, "geometry": { "type": "Point", "coordinates": [ -76.181831928128602, 43.046989948669399 ] } },
{ "type": "Feature", "properties": { "FID": 121, "Location": "Crescent Ave. & South Ave.", "Date": "2021-07-20T00:00:00Z", "Work_Order": "Main Break/Leak" }, "geometry": { "type": "Point", "coordinates": [ -76.1579176698053, 43.028610984569397 ] } },
{ "type": "Feature", "properties": { "FID": 122, "Location": "2775 Erie Blvd. E.", "Date": "2021-07-25T00:00:00Z", "Work_Order": "Main Break/Leak" }, "geometry": { "type": "Point", "coordinates": [ -76.094886021598995, 43.054635738739599 ] } },
{ "type": "Feature", "properties": { "FID": 123, "Location": "Marshall St. & Comstock Ave.", "Date": "2021-07-28T00:00:00Z", "Work_Order": "Main Break/Leak" }, "geometry": { "type": "Point", "coordinates": [ -76.130289150611205, 43.041578884454999 ] } },
{ "type": "Feature", "properties": { "FID": 124, "Location": "107 Barrington Rd.", "Date": "2021-08-01T00:00:00Z", "Work_Order": "Main Break/Leak" }, "geometry": { "type": "Point", "coordinates": [ -76.086225610366299, 43.0459353466576 ] } },
{ "type": "Feature", "properties": { "FID": 125, "Location": "Kirkpatrick St. & Michaels Ave.", "Date": "2021-08-06T00:00:00Z", "Work_Order": "Main Break/Leak" }, "geometry": { "type": "Point", "coordinates": [ -76.148992856399005, 43.075184265412503 ] } },
{ "type": "Feature", "properties": { "FID": 126, "Location": "377 W. Onondaga St.", "Date": "2021-08-08T00:00:00Z", "Work_Order": "Main Break/Leak" }, "geometry": { "type": "Point", "coordinates": [ -76.156359832832393, 43.041246122203098 ] } },
{ "type": "Feature", "properties": { "FID": 127, "Location": "1449-1455 Burnet Ave", "Date": "2021-08-09T00:00:00Z", "Work_Order": "Main Break/Leak" }, "geometry": { "type": "Point", "coordinates": [ -76.118170673155802, 43.055406754795001 ] } },
{ "type": "Feature", "properties": { "FID": 128, "Location": "377 W Onondaga St,  Syracuse,  New York,  13202", "Date": "2021-08-09T00:00:00Z", "Work_Order": "Main Break/Leak" }, "geometry": { "type": "Point", "coordinates": [ -76.156359832832393, 43.041246122203098 ] } },
{ "type": "Feature", "properties": { "FID": 129, "Location": "206 Duane St, Syracuse, New York, 13207", "Date": "2021-08-10T00:00:00Z", "Work_Order": "Main Break/Leak" }, "geometry": { "type": "Point", "coordinates": [ -76.178503273458404, 43.031758737437897 ] } },
{ "type": "Feature", "properties": { "FID": 130, "Location": "2100 E Fayette St Syracuse", "Date": "2021-08-12T00:00:00Z", "Work_Order": "Main Break/Leak" }, "geometry": { "type": "Point", "coordinates": [ -76.113715012473406, 43.048131020694498 ] } },
{ "type": "Feature", "properties": { "FID": 131, "Location": "663 E. Adams St", "Date": "2021-08-15T00:00:00Z", "Work_Order": "Main Break/Leak" }, "geometry": { "type": "Point", "coordinates": [ -76.142747432915698, 43.042815697680702 ] } },
{ "type": "Feature", "properties": { "FID": 132, "Location": "E Water St & S Beech St, Syracuse, New York, 13210", "Date": "2021-08-16T00:00:00Z", "Work_Order": "Main Break/Leak" }, "geometry": { "type": "Point", "coordinates": [ -76.127633757030495, 43.0501917368139 ] } },
{ "type": "Feature", "properties": { "FID": 133, "Location": "503-07 Westcott St & Harvard Pl", "Date": "2021-08-17T00:00:00Z", "Work_Order": "Main Break/Leak" }, "geometry": { "type": "Point", "coordinates": [ -76.119344725538596, 43.041517052584098 ] } },
{ "type": "Feature", "properties": { "FID": 134, "Location": "E Water St & S Beech St, Syracuse, New York, 13210", "Date": "2021-08-17T00:00:00Z", "Work_Order": "Main Break/Leak" }, "geometry": { "type": "Point", "coordinates": [ -76.127633757030495, 43.0501917368139 ] } },
{ "type": "Feature", "properties": { "FID": 135, "Location": "Kirkpatrick St & Michaels Ave,  Syracuse,  New York,  13208", "Date": "2021-08-19T00:00:00Z", "Work_Order": "Main Break/Leak" }, "geometry": { "type": "Point", "coordinates": [ -76.148992856399005, 43.075184265412503 ] } },
{ "type": "Feature", "properties": { "FID": 136, "Location": "E Fayette St & Croly St,  Syracuse,  New York,  13224", "Date": "2021-08-20T00:00:00Z", "Work_Order": "Main Break/Leak" }, "geometry": { "type": "Point", "coordinates": [ -76.1126628792628, 43.048202126745302 ] } },
{ "type": "Feature", "properties": { "FID": 137, "Location": "2100 E Fayette St", "Date": "2021-08-20T00:00:00Z", "Work_Order": "Main Break/Leak" }, "geometry": { "type": "Point", "coordinates": [ -76.113715012473406, 43.048131020694498 ] } },
{ "type": "Feature", "properties": { "FID": 138, "Location": "513 N. State St.Syracuse NY", "Date": "2021-08-24T00:00:00Z", "Work_Order": "Main Break/Leak" }, "geometry": { "type": "Point", "coordinates": [ -76.150769401606397, 43.055218102376301 ] } },
{ "type": "Feature", "properties": { "FID": 139, "Location": "1770 Erie Blvd W,  Syracuse,  New York,  13204", "Date": "2021-08-26T00:00:00Z", "Work_Order": "Main Break/Leak" }, "geometry": { "type": "Point", "coordinates": [ -76.191425043581205, 43.059150972957198 ] } },
{ "type": "Feature", "properties": { "FID": 140, "Location": "618 W. Newell St.", "Date": "2021-08-26T00:00:00Z", "Work_Order": "Main Break/Leak" }, "geometry": { "type": "Point", "coordinates": [ -76.155995792953703, 43.016689011470604 ] } },
{ "type": "Feature", "properties": { "FID": 141, "Location": "746 E. Laurel St.", "Date": "2021-08-30T00:00:00Z", "Work_Order": "Main Break/Leak" }, "geometry": { "type": "Point", "coordinates": [ -76.144524604051398, 43.060021220816601 ] } },
{ "type": "Feature", "properties": { "FID": 142, "Location": "1507 James St, Syracuse, New York, 13203", "Date": "2021-09-01T00:00:00Z", "Work_Order": "Main Break/Leak" }, "geometry": { "type": "Point", "coordinates": [ -76.126072085963798, 43.063412997399404 ] } },
{ "type": "Feature", "properties": { "FID": 143, "Location": "W Genesee St & Emerson Ave, Syracuse , NY", "Date": "2021-09-03T00:00:00Z", "Work_Order": "Main Break/Leak" }, "geometry": { "type": "Point", "coordinates": [ -76.187817095017905, 43.0524687333386 ] } },
{ "type": "Feature", "properties": { "FID": 144, "Location": "417 N State St", "Date": "2021-09-03T00:00:00Z", "Work_Order": "Main Break/Leak" }, "geometry": { "type": "Point", "coordinates": [ -76.150009450467707, 43.054277634890099 ] } },
{ "type": "Feature", "properties": { "FID": 145, "Location": "W Jefferson St & S Clinton St,  Syracuse,  New York,  13202", "Date": "2021-09-05T00:00:00Z", "Work_Order": "Main Break/Leak" }, "geometry": { "type": "Point", "coordinates": [ -76.153608452297206, 43.047071042379301 ] } },
{ "type": "Feature", "properties": { "FID": 146, "Location": "500 (Block) Spring St.", "Date": "2021-09-08T00:00:00Z", "Work_Order": "Main Break/Leak" }, "geometry": { "type": "Point", "coordinates": [ -76.149574048702107, 43.067684394729497 ] } },
{ "type": "Feature", "properties": { "FID": 147, "Location": "Montgomery St. @ E. Adams St.", "Date": "2021-09-09T00:00:00Z", "Work_Order": "Main Break/Leak" }, "geometry": { "type": "Point", "coordinates": [ -76.148880284531202, 43.042750320774601 ] } },
{ "type": "Feature", "properties": { "FID": 148, "Location": "111-15 Cornell Ave", "Date": "2021-09-21T00:00:00Z", "Work_Order": "Main Break/Leak" }, "geometry": { "type": "Point", "coordinates": [ -76.168425500410294, 43.012468984414497 ] } },
{ "type": "Feature", "properties": { "FID": 149, "Location": "139 Baldwin Ave Syracuse ny", "Date": "2021-09-21T00:00:00Z", "Work_Order": "Main Break/Leak" }, "geometry": { "type": "Point", "coordinates": [ -76.155111324699902, 43.015651236154703 ] } },
{ "type": "Feature", "properties": { "FID": 150, "Location": "105 Pennsylvania Ave, Syracuse, New York, 13208", "Date": "2021-09-22T00:00:00Z", "Work_Order": "Main Break/Leak" }, "geometry": { "type": "Point", "coordinates": [ -76.158062980974094, 43.0768537072531 ] } },
{ "type": "Feature", "properties": { "FID": 151, "Location": "144 Clifton Pl, Syracuse, New York, 13206", "Date": "2021-09-23T00:00:00Z", "Work_Order": "Main Break/Leak" }, "geometry": { "type": "Point", "coordinates": [ -76.116935135167097, 43.066329099813601 ] } },
{ "type": "Feature", "properties": { "FID": 152, "Location": "105 Pennsylvania Ave, Syracuse, New York, 13208", "Date": "2021-09-24T00:00:00Z", "Work_Order": "Main Break/Leak" }, "geometry": { "type": "Point", "coordinates": [ -76.158062980974094, 43.0768537072531 ] } },
{ "type": "Feature", "properties": { "FID": 153, "Location": "703 Walnut Ave, Syracuse, New York, 13210", "Date": "2021-09-26T00:00:00Z", "Work_Order": "Main Break/Leak" }, "geometry": { "type": "Point", "coordinates": [ -76.132158979445904, 43.043217430057098 ] } },
{ "type": "Feature", "properties": { "FID": 154, "Location": "219 Lamson St.", "Date": "2021-09-28T00:00:00Z", "Work_Order": "Main Break/Leak" }, "geometry": { "type": "Point", "coordinates": [ -76.100255890356095, 43.071401134348797 ] } },
{ "type": "Feature", "properties": { "FID": 155, "Location": "405 N. Lowell Ave", "Date": "2021-10-04T00:00:00Z", "Work_Order": "Main Break/Leak" }, "geometry": { "type": "Point", "coordinates": [ -76.1845117865426, 43.051329784661199 ] } },
{ "type": "Feature", "properties": { "FID": 156, "Location": "171 Fage Ave", "Date": "2021-10-05T00:00:00Z", "Work_Order": "Main Break/Leak" }, "geometry": { "type": "Point", "coordinates": [ -76.149523383952797, 43.023361479917199 ] } },
{ "type": "Feature", "properties": { "FID": 157, "Location": "615 Kirkpatrick St.", "Date": "2021-10-07T00:00:00Z", "Work_Order": "Main Break/Leak" }, "geometry": { "type": "Point", "coordinates": [ -76.153990974903707, 43.068564138663803 ] } },
{ "type": "Feature", "properties": { "FID": 158, "Location": "Grant Blvd & James St.", "Date": "2021-10-12T00:00:00Z", "Work_Order": "Main Break/Leak" }, "geometry": { "type": "Point", "coordinates": [ -76.114790323251, 43.068461886736998 ] } },
{ "type": "Feature", "properties": { "FID": 159, "Location": "1412 Westmoreland Ave", "Date": "2021-11-01T00:00:00Z", "Work_Order": "Main Break/Leak" }, "geometry": { "type": "Point", "coordinates": [ -76.113669440430996, 43.026914766442601 ] } },
{ "type": "Feature", "properties": { "FID": 160, "Location": "915 Cumberland Ave", "Date": "2021-11-05T00:00:00Z", "Work_Order": "Main Break/Leak" }, "geometry": { "type": "Point", "coordinates": [ -76.112545842394695, 43.028976023315899 ] } },
{ "type": "Feature", "properties": { "FID": 161, "Location": "2005-2121 E. Fayette St, Syracuse, New York, 13224", "Date": "2021-11-05T00:00:00Z", "Work_Order": "Main Break/Leak" }, "geometry": { "type": "Point", "coordinates": [ -76.114725668123697, 43.048308353854303 ] } },
{ "type": "Feature", "properties": { "FID": 162, "Location": "W Fayette St & School St, Syracuse, New York, 13204", "Date": "2021-11-05T00:00:00Z", "Work_Order": "Main Break/Leak" }, "geometry": { "type": "Point", "coordinates": [ -76.184977276432804, 43.053626990783997 ] } },
{ "type": "Feature", "properties": { "FID": 163, "Location": "114 Gorland Ave,  Syracuse,  New York,  13224", "Date": "2021-11-07T00:00:00Z", "Work_Order": "Main Break/Leak" }, "geometry": { "type": "Point", "coordinates": [ -76.101489927456697, 43.046299142005303 ] } },
{ "type": "Feature", "properties": { "FID": 164, "Location": "225 De Forest Rd", "Date": "2021-11-09T00:00:00Z", "Work_Order": "Main Break/Leak" }, "geometry": { "type": "Point", "coordinates": [ -76.090074766406303, 43.043929394499003 ] } },
{ "type": "Feature", "properties": { "FID": 165, "Location": "933 Jamesville Ave, Syracuse, New York, 13210", "Date": "2021-11-11T00:00:00Z", "Work_Order": "Main Break/Leak" }, "geometry": { "type": "Point", "coordinates": [ -76.129344761178402, 43.0173337468689 ] } },
{ "type": "Feature", "properties": { "FID": 166, "Location": "238 W. Jefferson St.", "Date": "2021-11-12T00:00:00Z", "Work_Order": "Main Break/Leak" }, "geometry": { "type": "Point", "coordinates": [ -76.154392576021493, 43.047491168130399 ] } },
{ "type": "Feature", "properties": { "FID": 167, "Location": "510 Hillsboro Pkwy, Syracuse, New York, 13214", "Date": "2021-11-15T00:00:00Z", "Work_Order": "Main Break/Leak" }, "geometry": { "type": "Point", "coordinates": [ -76.085299771425497, 43.040092401841299 ] } },
{ "type": "Feature", "properties": { "FID": 168, "Location": "475 State Fair Blvd, Syracuse, New York, 13204", "Date": "2021-11-15T00:00:00Z", "Work_Order": "Main Break/Leak" }, "geometry": { "type": "Point", "coordinates": [ -76.194595893571702, 43.064006525292299 ] } },
{ "type": "Feature", "properties": { "FID": 169, "Location": "120 Richmond Ave, Syracuse, New York, 13204", "Date": "2021-11-16T00:00:00Z", "Work_Order": "Main Break/Leak" }, "geometry": { "type": "Point", "coordinates": [ -76.166910266868896, 43.049997487848003 ] } },
{ "type": "Feature", "properties": { "FID": 170, "Location": "923 W. Lfayette Ave", "Date": "2021-11-17T00:00:00Z", "Work_Order": "Main Break/Leak" }, "geometry": { "type": "Point", "coordinates": [ -76.158581399246103, 43.018116722545898 ] } },
{ "type": "Feature", "properties": { "FID": 171, "Location": "300 Maltbie St", "Date": "2021-11-22T00:00:00Z", "Work_Order": "Main Break/Leak" }, "geometry": { "type": "Point", "coordinates": [ -76.162172587264095, 43.0556619007751 ] } },
{ "type": "Feature", "properties": { "FID": 172, "Location": "2005 E Fayette St, Syracuse, New York, 13224", "Date": "2021-11-23T00:00:00Z", "Work_Order": "Main Break/Leak" }, "geometry": { "type": "Point", "coordinates": [ -76.114725668123697, 43.048308353854303 ] } },
{ "type": "Feature", "properties": { "FID": 173, "Location": "204 DeMong Dr", "Date": "2021-11-24T00:00:00Z", "Work_Order": "Main Break/Leak" }, "geometry": { "type": "Point", "coordinates": [ -76.093672329818105, 43.046836174326202 ] } },
{ "type": "Feature", "properties": { "FID": 174, "Location": "James St. @ N. Mcbride St.", "Date": "2021-11-24T00:00:00Z", "Work_Order": "Main Break/Leak" }, "geometry": { "type": "Point", "coordinates": [ -76.144558369261304, 43.054299244609702 ] } },
{ "type": "Feature", "properties": { "FID": 175, "Location": "787 Erie Blvd W, Syracuse, New York, 13204", "Date": "2021-11-24T00:00:00Z", "Work_Order": "Main Break/Leak" }, "geometry": { "type": "Point", "coordinates": [ -76.1701700591274, 43.048079811961003 ] } },
{ "type": "Feature", "properties": { "FID": 176, "Location": "E. Florence Av @ S. Salina St", "Date": "2021-11-24T00:00:00Z", "Work_Order": "Main Break/Leak" }, "geometry": { "type": "Point", "coordinates": [ -76.1430319075006, 43.006995350995403 ] } },
{ "type": "Feature", "properties": { "FID": 177, "Location": "357 Spencer St.", "Date": "2021-11-27T00:00:00Z", "Work_Order": "Main Break/Leak" }, "geometry": { "type": "Point", "coordinates": [ -76.161823846819402, 43.058434561056799 ] } },
{ "type": "Feature", "properties": { "FID": 178, "Location": "373 Spencer St, Syracuse, New York, 13204", "Date": "2021-11-27T00:00:00Z", "Work_Order": "Main Break/Leak" }, "geometry": { "type": "Point", "coordinates": [ -76.162434230134096, 43.058191665737503 ] } },
{ "type": "Feature", "properties": { "FID": 179, "Location": "513 Buckingham Ave, Syracuse, New York, 13210", "Date": "2021-11-30T00:00:00Z", "Work_Order": "Main Break/Leak" }, "geometry": { "type": "Point", "coordinates": [ -76.120447517878006, 43.0240854716941 ] } },
{ "type": "Feature", "properties": { "FID": 180, "Location": "513 Buckingham Ave, Syracuse, New York, 13210", "Date": "2021-12-01T00:00:00Z", "Work_Order": "Main Break/Leak" }, "geometry": { "type": "Point", "coordinates": [ -76.120447517878006, 43.0240854716941 ] } },
{ "type": "Feature", "properties": { "FID": 181, "Location": "Arch St. @ Caleb Ave.", "Date": "2021-12-01T00:00:00Z", "Work_Order": "Main Break/Leak" }, "geometry": { "type": "Point", "coordinates": [ -76.099460069149302, 43.0611947426463 ] } },
{ "type": "Feature", "properties": { "FID": 182, "Location": "2600 E Genesee St, Syracuse, New York, 13224", "Date": "2021-12-07T00:00:00Z", "Work_Order": "Main Break/Leak" }, "geometry": { "type": "Point", "coordinates": [ -76.112401875932804, 43.0448289366064 ] } },
{ "type": "Feature", "properties": { "FID": 183, "Location": "Euclid Av. @ Standish Dr.", "Date": "2021-12-07T00:00:00Z", "Work_Order": "Main Break/Leak" }, "geometry": { "type": "Point", "coordinates": [ -76.104616142207405, 43.034886727732001 ] } },
{ "type": "Feature", "properties": { "FID": 184, "Location": "E. Genesee St. @ Bradford Pkwy", "Date": "2021-12-08T00:00:00Z", "Work_Order": "Main Break/Leak" }, "geometry": { "type": "Point", "coordinates": [ -76.106866575177506, 43.043014367700501 ] } },
{ "type": "Feature", "properties": { "FID": 185, "Location": "2000 E Fayette St,  Syracuse,  New York,  13224", "Date": "2021-12-08T00:00:00Z", "Work_Order": "Main Break/Leak" }, "geometry": { "type": "Point", "coordinates": [ -76.114772665046303, 43.0481442938962 ] } },
{ "type": "Feature", "properties": { "FID": 186, "Location": "718 Delaware St.", "Date": "2021-12-08T00:00:00Z", "Work_Order": "Main Break/Leak" }, "geometry": { "type": "Point", "coordinates": [ -76.173958261313004, 43.039840318050203 ] } },
{ "type": "Feature", "properties": { "FID": 187, "Location": "Euclid Ave & Standish Dr, Syracuse, New York, 13224", "Date": "2021-12-08T00:00:00Z", "Work_Order": "Main Break/Leak" }, "geometry": { "type": "Point", "coordinates": [ -76.104616142207405, 43.034886727732001 ] } },
{ "type": "Feature", "properties": { "FID": 188, "Location": "223 DeForest Rd, Syracuse, New York, 13214", "Date": "2021-12-08T00:00:00Z", "Work_Order": "Main Break/Leak" }, "geometry": { "type": "Point", "coordinates": [ -76.090174263767096, 43.043059016808499 ] } },
{ "type": "Feature", "properties": { "FID": 189, "Location": "113 Rockwood Pl, Syracuse, New York, 13215", "Date": "2021-12-08T00:00:00Z", "Work_Order": "Main Break/Leak" }, "geometry": { "type": "Point", "coordinates": [ -76.198892884619795, 43.023741500971603 ] } },
{ "type": "Feature", "properties": { "FID": 190, "Location": "101 Elliott St, Syracuse, New York, 13204", "Date": "2021-12-08T00:00:00Z", "Work_Order": "Main Break/Leak" }, "geometry": { "type": "Point", "coordinates": [ -76.169023219708905, 43.035061611373401 ] } },
{ "type": "Feature", "properties": { "FID": 191, "Location": "105 Sunhill Terr", "Date": "2021-12-09T00:00:00Z", "Work_Order": "Main Break/Leak" }, "geometry": { "type": "Point", "coordinates": [ -76.189263017458401, 43.0307368875335 ] } },
{ "type": "Feature", "properties": { "FID": 192, "Location": "907 Hazelwood Ave", "Date": "2021-12-10T00:00:00Z", "Work_Order": "Main Break/Leak" }, "geometry": { "type": "Point", "coordinates": [ -76.092433160682106, 43.052046098733904 ] } },
{ "type": "Feature", "properties": { "FID": 193, "Location": "2100 E. Fayette St", "Date": "2021-12-14T00:00:00Z", "Work_Order": "Main Break/Leak" }, "geometry": { "type": "Point", "coordinates": [ -76.113715012473406, 43.048131020694498 ] } },
{ "type": "Feature", "properties": { "FID": 194, "Location": "Wolf St & Grant Blvd, Syracuse, New York, 13208", "Date": "2021-12-14T00:00:00Z", "Work_Order": "Main Break/Leak" }, "geometry": { "type": "Point", "coordinates": [ -76.159973831342199, 43.076934525257698 ] } },
{ "type": "Feature", "properties": { "FID": 195, "Location": "Dupli Park Dr., Syracuse, New York, 13204", "Date": "2021-12-15T00:00:00Z", "Work_Order": "Main Break/Leak" }, "geometry": { "type": "Point", "coordinates": [ -76.157551480919295, 43.057043523807799 ] } },
{ "type": "Feature", "properties": { "FID": 196, "Location": "2716 Erie Blvd E, Syracuse, New York, 13224", "Date": "2021-12-20T00:00:00Z", "Work_Order": "Main Break/Leak" }, "geometry": { "type": "Point", "coordinates": [ -76.096368777473103, 43.054314593913197 ] } },
{ "type": "Feature", "properties": { "FID": 197, "Location": "FORMAN AVE @ ORANGE ALLEY", "Date": "2021-12-22T00:00:00Z", "Work_Order": "Main Break/Leak" }, "geometry": { "type": "Point", "coordinates": [ -76.139957780671693, 43.047933116282998 ] } },
{ "type": "Feature", "properties": { "FID": 198, "Location": "1449 Erie Blvd E, Syracuse, New York, 13210", "Date": "2021-12-23T00:00:00Z", "Work_Order": "Main Break/Leak" }, "geometry": { "type": "Point", "coordinates": [ -76.127030270167396, 43.050394500244003 ] } },
{ "type": "Feature", "properties": { "FID": 199, "Location": "1804 Teall Ave.", "Date": "2021-12-23T00:00:00Z", "Work_Order": "Main Break/Leak" }, "geometry": { "type": "Point", "coordinates": [ -76.123071980403296, 43.072973177731001 ] } },
{ "type": "Feature", "properties": { "FID": 200, "Location": "307 Marcellus St.", "Date": "2021-12-23T00:00:00Z", "Work_Order": "Main Break/Leak" }, "geometry": { "type": "Point", "coordinates": [ -76.161998258299107, 43.046851679513701 ] } },
{ "type": "Feature", "properties": { "FID": 201, "Location": "440 S. Warren St.", "Date": "2021-12-28T00:00:00Z", "Work_Order": "Main Break/Leak" }, "geometry": { "type": "Point", "coordinates": [ -76.1509367520582, 43.046415283055097 ] } },
{ "type": "Feature", "properties": { "FID": 202, "Location": "679 W. Onondaga St", "Date": "2021-12-28T00:00:00Z", "Work_Order": "Main Break/Leak" }, "geometry": { "type": "Point", "coordinates": [ -76.161525187828502, 43.037464027404503 ] } },
{ "type": "Feature", "properties": { "FID": 203, "Location": "922 Erie Blvd W.", "Date": "2021-12-28T00:00:00Z", "Work_Order": "Main Break/Leak" }, "geometry": { "type": "Point", "coordinates": [ -76.173422752844004, 43.048172593618403 ] } }
]
}
